{"name":"Abigail","id":211770632,"origin":"Chama Valley Humane Society","bite_quarantine":0,"returned":0,"latitude":36.894318,"longitude":-106.581931}
{"name":"Agent Hill","id":211696605,"origin":"Forever Homes Animal Rescue","bite_quarantine":0,"returned":0,"latitude":32.8985,"longitude":-105.9510}
{"name":"Ahsoka","id":211521152,"origin":"Socorro Animal Shelter and Adoption Center","bite_quarantine":0,"returned":0,"latitude":34.0225,"longitude":-106.9031}
{"name":"Alani","id":211706755,"origin":"Farmington Regional Animal Shelter","bite_quarantine":0,"returned":0,"latitude":36.7334,"longitude":-108.1681}
{"name":"Aleu","id":211720642,"origin":"Humane Society of Lincoln County","bite_quarantine":0,"returned":0,"latitude":33.331749,"longitude":-105.6650}
{"name":"Alex","id":211497076,"origin":"Owner Surrender","bite_quarantine":0,"returned":0}
{"name":"Alice","id":210921418,"origin":"Paws & Claws Rescue of Quay County","bite_quarantine":0,"returned":0,"latitude":35.1911,"longitude":-103.6150}
{"name":"Allegretto","id":211812321,"origin":"Bernalillo County Animal Care","bite_quarantine":0,"returned":0,"latitude":35.0561,"longitude":-106.6646}
{"name":"Amelia","id":211254014,"origin":"Roswell Humane Society","bite_quarantine":0,"returned":1,"latitude":33.3930,"longitude":-104.5235}
{"name":"Andi","id":211903055,"origin":"Humane Society of Lincoln County","bite_quarantine":0,"returned":0,"latitude":33.3436,"longitude":-105.6650}
{"name":"Andy","id":210782959,"origin":"Espanola Humane","bite_quarantine":0,"returned":0,"latitude":36.0006,"longitude":-106.0373}
{"name":"April","id":211537976,"origin":"DAGSHIP Rescue","bite_quarantine":0,"returned":0,"latitude":32.2655,"longitude":-107.7582}
{"name":"Aries","id":210775713,"origin":"Corrales Kennels","bite_quarantine":0,"returned":1,"latitude":35.2378,"longitude":-106.6067}
{"name":"Arthur Morgan","id":211720890,"origin":"Humane Society of Lincoln County","bite_quarantine":0,"returned":0,"latitude":33.331749,"longitude":-105.6650}
{"name":"Aspen","id":211502554,"origin":"Espanola Humane","bite_quarantine":0,"returned":0,"latitude":36.0006,"longitude":-106.0373}
{"name":"Asta","id":211552679,"origin":"The Animal Services Center","bite_quarantine":0,"returned":0,"latitude":32.3128,"longitude":-106.7799} 
{"name":"Astarion","id":211812054,"origin":"Bernalillo County Animal Care","bite_quarantine":0,"returned":0,"latitude":35.0561,"longitude":-106.6646}
{"name":"Athena","id":211530824,"origin":"ABQ Animal Welfare Department","bite_quarantine":0,"returned":0,"latitude":35.1102,"longitude":-106.5823}
{"name":"Atlas","id":210468592,"origin":"Stray","bite_quarantine":0,"returned":0}
{"name":"Avery","id":211728883,"origin":"Stray","bite_quarantine":0,"returned":0}
{"name":"Aylin","id":211538066,"origin":"DAGSHIP Rescue","bite_quarantine":0,"returned":0,"latitude":32.2655,"longitude":-107.7582}
{"name":"Bao","id":211823502,"origin":"Santa Rosa Animal Control","bite_quarantine":0,"returned":0,"latitude":34.9387,"longitude":-104.6825}
{"name":"Baxter","id":208812460,"origin":"ABQ Animal Welfare Department","bite_quarantine":0,"returned":1, "latitude":35.1102,"longitude":-106.5823}
{"name":"Beemo","id":211911009,"origin":"Owner Surrender","bite_quarantine":0,"returned":0}
{"name":"Belle","id":208813500,"origin":"Espanola Humane","bite_quarantine":0,"returned":0,"latitude":36.0006,"longitude":-106.0373}
{"name":"Ben","id":211790220,"origin":"ACTion Programs for Animals","bite_quarantine":0,"returned":0,"latitude":32.315292,"longitude":-106.767102}
{"name":"Benji","id":211681932,"origin":"Stray","bite_quarantine":0,"returned":1}
{"name":"Benny","id":211281108,"origin":"Bayard Animal Control","bite_quarantine":0,"returned":0,"latitude":32.7795,"longitude":-108.1503}
{"name":"Benny","id":211529901,"origin":"Stray","bite_quarantine":0,"returned":0}
{"name":"Betty Boop","id":211294191,"origin":"Valencia County Animal Shelter","bite_quarantine":0,"returned":0,"latitude":34.7945,"longitude":-106.7400}
{"name":"Bilbo Waggins","id":211662003,"origin":"Torrance County Animal Shelter","bite_quarantine":0,"returned":0,"latitude":34.8712,"longitude":-106.0515}
{"name":"Billy","id":211281108,"origin":"Bayard Animal Control","bite_quarantine":0,"returned":0,"latitude":32.7795,"longitude":-108.1503}
{"name":"Bitsy","id":208812468,"origin":"Espanola Humane","bite_quarantine":0,"returned":0,"latitude":36.0006,"longitude":-106.0373}
{"name":"Boba Fetch","id":211520811,"origin":"Socorro Animal Shelter and Adoption Center","bite_quarantine":0,"returned":0,"latitude":34.0225,"longitude":-106.9031}
{"name":"Bonnie","id":211281311,"origin":"Bayard Animal Control","bite_quarantine":0,"returned":0,"latitude":32.7795,"longitude":-108.1503}
{"name":"Brandy","id":211066523,"origin":"Espanola Humane","bite_quarantine":0,"returned":0,"latitude":36.0006,"longitude":-106.0373}
{"name":"Brodie","id":211761261,"origin":"Mountainair Animal Control","bite_quarantine":0,"returned":0,"latitude":34.5197,"longitude":-106.2433}
{"name":"Bruce (Arlo)","id":208812426,"origin":"ABQ Animal Welfare Department","bite_quarantine":0,"returned":1,"latitude":35.1102,"longitude":-106.5823}
{"name":"Brulee","id":211689729,"origin":"Stray","bite_quarantine":0,"returned":0}
{"name":"Bruno","id":208817014,"origin":"Owner Surrender","bite_quarantine":0,"returned":0,"latitude":0,"longitude":0}
{"name":"Bucky Barnes","id":211696430,"origin":"Forever Homes Animal Rescue","bite_quarantine":0,"returned":0,"latitude":32.8985,"longitude":-105.9510}
{"name":"Burger","id":211233849,"origin":"ABQ Animal Welfare Department","bite_quarantine":0,"returned":0,"latitude":35.1102,"longitude":-106.5823}
{"name":"Cadbury","id":211790905,"origin":"ACTion Programs for Animals","bite_quarantine":0,"returned":0,"latitude":32.315292,"longitude":-106.767102}
{"name":"Callisto","id":211564294,"origin":"Artesia Animal Shelter (Paws & Claws Humane Society)","bite_quarantine":0,"returned":0,"latitude":32.8423,"longitude":-104.4033}
{"name":"Captain America","id":211696310,"origin":"Forever Homes Animal Rescue","bite_quarantine":0,"returned":0,"latitude":32.8985,"longitude":-105.9510}
{"name":"Captain Marvel","id":211696516,"origin":"Forever Homes Animal Rescue","bite_quarantine":0,"returned":0,"latitude":32.8985,"longitude":-105.9510}
{"name":"Celsius","id":211707283,"origin":"Farmington Regional Animal Shelter","bite_quarantine":0,"returned":0,"latitude":36.7334,"longitude":-108.1681}
{"name":"Chantrelle","id":211552760,"origin":"The Animal Services Center","bite_quarantine":0,"returned":1,"latitude":32.3128,"longitude":-106.7799}
{"name":"Charmy","id":211510059,"origin":"City of Las Vegas Animal Care Center","bite_quarantine":0,"returned":1,"latitude":35.5939,"longitude":-105.2239}
{"name":"Chef","id":210333265,"origin":"Espanola Humane","bite_quarantine":0,"returned":1,"latitude":36.0006,"longitude":-106.0373}
{"name":"Cherry","id":211564613,"origin":"Artesia Animal Shelter (Paws & Claws Humane Society)","bite_quarantine":0,"returned":0,"latitude":32.8423,"longitude":-104.4033}
{"name":"Chip","id":211471411,"origin":"Roswell Humane Society","bite_quarantine":0,"returned":0,"latitude":33.3930,"longitude":-104.5235}
{"name":"Chocolate","id":211552425,"origin":"Stray","bite_quarantine":0,"returned":0}
{"name":"Chuck","id":210356940,"origin":"Unknown","bite_quarantine":0, "returned":0}
{"name":"Chuckie","id":208818048,"origin":"ABQ Animal Welfare Department","bite_quarantine":0,"returned":0,"latitude":35.1102,"longitude":-106.5823}
{"name":"Cinna","id":211461826,"origin":"Humane Society of Lincoln County","bite_quarantine":0,"returned":1,"latitude":33.331749,"longitude":-105.6650}
{"name":"Clark","id":211459856,"origin":"Humane Society of Lincoln County","bite_quarantine":0,"returned":1,"latitude":33.331749,"longitude":-105.6650}
{"name":"Clint","id":211696117,"origin":"Forever Homes Animal Rescue","bite_quarantine":0,"returned":0,"latitude":32.8985,"longitude":-105.9510}
{"name":"Cochise","id":211917893,"origin":"Cindy's Hope for Precious Paws","bite_quarantine":0,"returned":0,"latitude":34.4214,"longitude":-103.2150}
{"name":"Cora","id":211661836,"origin":"Torrance County Animal Shelter","bite_quarantine":0,"returned":0,"latitude":34.8712,"longitude":-106.0515}
{"name":"Cosmo","id":211818785,"origin":"Truth or Consequences Animal Shelter","bite_quarantine":0,"returned":0,"latitude":33.1347,"longitude":-107.2425}
{"name":"Crescendo","id":211812422,"origin":"Bernalillo County Animal Care","bite_quarantine":0,"returned":0,"latitude":35.0561,"longitude":-106.6646}
{"name":"Crumb","id":211461869,"origin":"Humane Society of Lincoln County","bite_quarantine":0,"returned":1,"latitude":33.331749,"longitude":-105.6650}
{"name":"Cyclops","id":211903376,"origin":"Humane Society of Lincoln County","bite_quarantine":0,"returned":0,"latitude":33.3436,"longitude":-105.6650}
{"name":"Daffy","id":211294255,"origin":"Valencia County Animal Shelter","bite_quarantine":0,"returned":0,"latitude":34.7945,"longitude":-106.7400}
{"name":"Dahlia","id":211686957,"origin":"Rio Rancho Animal Control","bite_quarantine":0,"returned":0,"latitude":35.2748, "longitude":-106.6681}
{"name":"Dakota","id":208819156,"origin":"ABQ Animal Welfare Department","bite_quarantine":1,"returned":0,"latitude":35.1102,"longitude":-106.5823}
{"name":"Darla","id":211564348,"origin":"Artesia Animal Shelter (Paws & Claws Humane Society)","bite_quarantine":0,"returned":0,"latitude":32.8423,"longitude":-104.4033}
{"name":"Destiny","id":211623887,"origin":"Unknown","bite_quarantine":0,"returned":0}
{"name":"Dolly","id":211795622,"origin":"Santa Clara Animal Control","bite_quarantine":0,"returned":0,"latitude":32.776773,"longitude":-108.153132}
{"name":"Duchess","id":211814172,"origin":"Owner Surrender","bite_quarantine":0,"returned":0}
{"name":"Dusty","id":211795803,"origin":"Santa Clara Animal Control","bite_quarantine":0,"returned":0,"latitude":32.776773,"longitude":-108.153132}
{"name":"Ebony","id":211638968,"origin":"Clayton","bite_quarantine":0,"returned":0,"latitude":36.4517,"longitude":-103.1841}
{"name":"Eevee","id":211648235,"origin":"Roswell Humane Society","bite_quarantine":0,"returned":0,"latitude":33.3930,"longitude":-104.5235}
{"name":"Ein","id":211761996,"origin":"Stray","bite_quarantine":0,"returned":0}
{"name":"Elton","id":211812176,"origin":"Bernalillo County Animal Care","bite_quarantine":0,"returned":0,"latitude":35.0561,"longitude":-106.6646}
{"name":"Eren","id":211047757,"origin":"Humane Society of Lincoln County","bite_quarantine":0,"returned":1,"latitude":33.331749,"longitude":-105.6650}
{"name":"Esme","id":210921368,"origin":"Paws & Claws Rescue of Quay County","bite_quarantine":0,"returned":1,"latitude":35.1911,"longitude":-103.6150}
{"name":"Espeon","id":211648436,"origin":"Roswell Humane Society","bite_quarantine":0,"returned":0,"latitude":33.3930,"longitude":-104.5235}
{"name":"Eve","id":211037990,"origin":"Tucumcari Animal Shelter","bite_quarantine":0,"returned":0,"latitude":35.1927,"longitude":-103.7197}
{"name":"Falcon","id":211696498,"origin":"Forever Homes Animal Rescue","bite_quarantine":0,"returned":0,"latitude":32.8985,"longitude":-105.9510}
{"name":"Falkor","id":211903164,"origin":"Humane Society of Lincoln County","bite_quarantine":0,"returned":0,"latitude":33.3436,"longitude":-105.6650}
{"name":"Falsetto","id":211812484,"origin":"Bernalillo County Animal Care","bite_quarantine":0,"returned":0,"latitude":35.0561,"longitude":-106.6646}
{"name":"Ferris","id":208815693,"origin":"ABQ Animal Welfare Department","bite_quarantine":0,"returned":1,"latitude":35.1102,"longitude":-106.5823}
{"name":"Fili","id":211260828,"origin":"Mountainair Animal Control","bite_quarantine":0,"returned":0,"latitude":34.5197,"longitude":-106.2433}
{"name":"Finn","id":211521007,"origin":"Socorro Animal Shelter and Adoption Center","bite_quarantine":0,"returned":0,"latitude":34.0225,"longitude":-106.9031}
{"name":"Fiona","id":211502739,"origin":"Espanola Humane","bite_quarantine":0,"returned":0,"latitude":36.0006,"longitude":-106.0373}
{"name":"Flareon","id":211648282,"origin":"Roswell Humane Society","bite_quarantine":0,"returned":0,"latitude":33.3930,"longitude":-104.5235}
{"name":"Florence","id":210798763,"origin":"Socorro Animal Shelter and Adoption Center","bite_quarantine":0,"returned":0,"latitude":34.0225,"longitude":-106.9031}
{"name":"Floki","id":211910372,"origin":"Owner Surrender","bite_quarantine":0,"returned":0}
{"name":"Franklin","id":211633259,"origin":"Truth or Consequences Animal Shelter","bite_quarantine":0,"returned":0,"latitude":33.1347,"longitude":-107.2425}
{"name":"Freddy","id":210919404,"origin":"Four Corners Animal League","bite_quarantine":1,"returned":0,"latitude":36.4072,"longitude":-105.5731}
{"name":"Fry","id":211524229,"origin":"Tucumcari Animal Shelter","bite_quarantine":0,"returned":0,"latitude":35.1927,"longitude":-103.7197}
{"name":"Gale","id":211460689,"origin":"Humane Society of Lincoln County","bite_quarantine":0,"returned":0,"latitude":33.331749,"longitude":-105.6650}
{"name":"Gale","id":211812007,"origin":"Bernalillo County Animal Care","bite_quarantine":0,"returned":0,"latitude":35.0561,"longitude":-106.6646}
{"name":"Gambit","id":211903105,"origin":"Humane Society of Lincoln County","bite_quarantine":0,"returned":0,"latitude":33.3436,"longitude":-105.6650}
{"name":"Gimli","id":211459897,"origin":"Humane Society of Lincoln County","bite_quarantine":0,"returned":0,"latitude":33.331749,"longitude":-105.6650}
{"name":"Ginny","id":211590344,"origin":"ABQ Animal Welfare Department","bite_quarantine":0,"returned":0,"latitude":35.1102,"longitude":-106.5823}
{"name":"Girby","id":211590195,"origin":"ABQ Animal Welfare Department","bite_quarantine":0,"returned":0,"latitude":35.1102,"longitude":-106.5823}
{"name":"Gloria","id":211524429,"origin":"Tucumcari Animal Shelter","bite_quarantine":0,"returned":0,"latitude":35.1927,"longitude":-103.7197}
{"name":"Gnocchi","id":211823717,"origin":"Santa Rosa Animal Control","bite_quarantine":0,"returned":0,"latitude":34.9387,"longitude":-104.6825}
{"name":"Griffin","id":208817674,"origin":"ABQ Animal Welfare Department","bite_quarantine":0,"returned":0,"latitude":35.1102,"longitude":-106.5823}
{"name":"Gus","id":211818877,"origin":"Truth or Consequences Animal Shelter","bite_quarantine":0,"returned":0,"latitude":33.1347,"longitude":-107.2425}
{"name":"Harley","id":208817015,"origin":"Owner Surrender","bite_quarantine":0,"returned":1,"latitude":0,"longitude":0}
{"name":"Havana","id":211903456,"origin":"Humane Society of Lincoln County","bite_quarantine":0,"returned":0,"latitude":33.3436,"longitude":-105.6650}
{"name":"Hazel","id":210495588,"origin":"City of Las Vegas Animal Care Center","bite_quarantine":0,"returned":0,"latitude":35.5939,"longitude":-105.2239}
{"name":"Hemi","id":210282034,"origin":"Bernalillo County Animal Care","bite_quarantine":1,"returned":0,"latitude":35.0561,"longitude":-106.6646}
{"name":"Hermione","id":211590344,"origin":"ABQ Animal Welfare Department","bite_quarantine":0,"returned":0,"latitude":35.1102,"longitude":-106.5823}
{"name":"Hershey","id":211045070,"origin":"Adoption Return","bite_quarantine":0,"returned":1}
{"name":"Hoagie","id":211633097,"origin":"Truth or Consequences Animal Shelter","bite_quarantine":0,"returned":0,"latitude":33.1347,"longitude":-107.2425}
{"name":"Isabella","id":208809275,"origin":"ABQ Animal Welfare Department","bite_quarantine":0,"returned":0,"latitude":35.1102,"longitude":-106.5823}
{"name":"Ivy","id":210061291,"origin":"ABQ Animal Welfare Department","bite_quarantine":0,"returned":0,"latitude":35.1102,"longitude":-106.5823}
{"name":"Izzy","id":211903024,"origin":"Humane Society of Lincoln County","bite_quarantine":0,"returned":0,"latitude":33.3436,"longitude":-105.6650}
{"name":"Jabba the Pup","id":211721069,"origin":"Humane Society of Lincoln County","bite_quarantine":0,"returned":0,"latitude":33.331749,"longitude":-105.6650}
{"name":"Jack Frost","id":210169171,"origin":"Bernalillo County Animal Care","bite_quarantine":0,"returned":0,"latitude":35.0561,"longitude":-106.6646}
{"name":"Jackson","id":211331546,"origin":"ABQ Animal Welfare Department","bite_quarantine":1,"returned":0,"latitude":35.1102,"longitude":-106.5823}
{"name":"Jade","id":211606621,"origin":"Otero County Animal Control","bite_quarantine":0,"returned":0,"latitude":32.8995,"longitude":-105.9603}
{"name":"Jane","id":211032775,"origin":"Socorro Animal Shelter and Adoption Center","bite_quarantine":0,"returned":1,"latitude":34.0225,"longitude":-106.9031}
{"name":"Jasper","id":210921217,"origin":"Paws & Claws Rescue of Quay County","bite_quarantine":0,"returned":1,"latitude":35.1911,"longitude":-103.6150}
{"name":"Jean Grey","id":211903273,"origin":"Humane Society of Lincoln County","bite_quarantine":0,"returned":0,"latitude":33.3436,"longitude":-105.6650}
{"name":"Jenna","id":211687029,"origin":"Rio Rancho Animal Control","bite_quarantine":0,"returned":1,"latitude":35.2748, "longitude":-106.6681}
{"name":"Jerry","id":211789855,"origin":"ACTion Programs for Animals","bite_quarantine":0,"returned":0,"latitude":32.315292,"longitude":-106.767102}
{"name":"Jinu","id":211564687,"origin":"Artesia Animal Shelter (Paws & Claws Humane Society)","bite_quarantine":0,"returned":0,"latitude":32.8423,"longitude":-104.4033}
{"name":"Jolteon","id":211648364,"origin":"Roswell Humane Society","bite_quarantine":0,"returned":0,"latitude":33.3930,"longitude":-104.5235}
{"name":"Junebug","id":210841997,"origin":"Gallup McKinley County Humane Society","bite_quarantine":0,"returned":0,"latitude":35.543605,"longitude":-108.760272}
{"name":"Karlach","id":211811951,"origin":"Bernalillo County Animal Care","bite_quarantine":0,"returned":0,"latitude":35.0561,"longitude":-106.6646}
{"name":"Katniss","id":211680593,"origin":"Corrales Animal Services","bite_quarantine":0,"returned":0,"latitude":35.2393,"longitude":-106.6054}
{"name":"Kiera","id":211761683,"origin":"Mountainair Animal Control","bite_quarantine":0,"returned":1,"latitude":34.5197,"longitude":-106.2433}
{"name":"Koda","id":210614408,"origin":"Bernalillo County Animal Care","bite_quarantine":0,"returned":1,"latitude":35.0561,"longitude":-106.6646}
{"name":"Lady","id":208819111,"origin":"Torrance County Animal Shelter","bite_quarantine":1,"returned":0,"latitude":34.8712,"longitude":-106.0515}
{"name":"Lae'zel","id":211811917,"origin":"Bernalillo County Animal Care","bite_quarantine":0,"returned":1,"latitude":35.0561,"longitude":-106.6646}
{"name":"Lasagna","id":211694553,"origin":"Stray","bite_quarantine":0,"returned":0}
{"name":"Leafeon","id":211648437,"origin":"Roswell Humane Society","bite_quarantine":0,"returned":0,"latitude":33.3930,"longitude":-104.5235}
{"name":"Leela","id":211524532,"origin":"Tucumcari Animal Shelter","bite_quarantine":0,"returned":0,"latitude":35.1927,"longitude":-103.7197}
{"name":"Leroy","id":211564459,"origin":"Artesia Animal Shelter (Paws & Claws Humane Society)","bite_quarantine":0,"returned":0,"latitude":32.8423,"longitude":-104.4033}
{"name":"Lewis","id":211459964,"origin":"Humane Society of Lincoln County","bite_quarantine":0,"returned":0,"latitude":33.331749,"longitude":-105.6650}
{"name":"Liam","id":211681696,"origin":"Unknown","bite_quarantine":0,"returned":1}
{"name":"Littles","id":211038271,"origin":"Tucumcari Animal Shelter","bite_quarantine":0,"returned":0,"latitude":35.1927,"longitude":-103.7197}
{"name":"Loaf","id":211461739,"origin":"Humane Society of Lincoln County","bite_quarantine":1,"returned":0,"latitude":33.331749,"longitude":-105.6650}
{"name":"Lola","id":211761473,"origin":"Mountainair Animal Control","bite_quarantine":0,"returned":0,"latitude":34.5197,"longitude":-106.2433}
{"name":"Luna","id":211294318,"origin":"Valencia County Animal Shelter","bite_quarantine":1,"returned":0,"latitude":34.7945,"longitude":-106.7400}
{"name":"Major","id":210384420,"origin":"Bro & Tracy Animal Welfare","bite_quarantine":0,"returned":0,"latitude":35.2378,"longitude":-106.6067}
{"name":"Marina","id":211706560,"origin":"Farmington Regional Animal Shelter","bite_quarantine":0,"returned":0,"latitude":36.7334,"longitude":-108.1681}
{"name":"Marley","id":208817015,"origin":"Owner Surrender","bite_quarantine":0,"returned":1,"latitude":0,"longitude":0}
{"name":"Marley","id":210821501,"origin":"Humane Society of Lincoln County","bite_quarantine":0,"returned":0,"latitude":33.331749,"longitude":-105.6650}
{"name":"Mars","id":211720244,"origin":"Humane Society of Lincoln County","bite_quarantine":0,"returned":0,"latitude":33.331749,"longitude":-105.6650}
{"name":"Mary Kate","id":210934608,"origin":"ABQ Animal Welfare Department","bite_quarantine":0,"returned":0,"latitude":35.1102,"longitude":-106.5823}
{"name":"Mateo","id":211823638,"origin":"Santa Rosa Animal Control","bite_quarantine":0,"returned":0,"latitude":34.9387,"longitude":-104.6825}
{"name":"Maverick","id":211606699,"origin":"Otero County Animal Control","bite_quarantine":0,"returned":0,"latitude":32.8995,"longitude":-105.9603}
{"name":"Mazey","id":210871009,"origin":"ABQ Animal Welfare Department","bite_quarantine":0,"returned":0,"latitude":35.1102,"longitude":-106.5823}
{"name":"Messi","id":211584626,"origin":"Bro & Tracy Animal Welfare","bite_quarantine":0,"returned":0,"latitude":35.2378,"longitude":-106.6067}
{"name":"Midas","id":211633220,"origin":"Truth or Consequences Animal Shelter","bite_quarantine":0,"returned":0,"latitude":33.1347,"longitude":-107.2425}
{"name":"Mila","id":210926797,"origin":"Otero County Animal Control","bite_quarantine":0,"returned":0,"latitude":32.8995,"longitude":-105.9603}
{"name":"Milo","id":210692025,"origin":"Stray Hearts Animal Shelter","bite_quarantine":0,"returned":1,"latitude":36.4096,"longitude":-105.5732}
{"name":"Mindy","id":211670404,"origin":"ABQ Animal Welfare Department","bite_quarantine":0,"returned":0,"latitude":35.1102,"longitude":-106.5823}
{"name":"Minna","id":211761119,"origin":"Mountainair Animal Control","bite_quarantine":0,"returned":0,"latitude":34.5197,"longitude":-106.2433}
{"name":"Mira","id":211564764,"origin":"Artesia Animal Shelter (Paws & Claws Humane Society)","bite_quarantine":0,"returned":0,"latitude":32.8423,"longitude":-104.4033}
{"name":"Minthara","id":211812040,"origin":"Bernalillo County Animal Care","bite_quarantine":0,"returned":0,"latitude":35.0561,"longitude":-106.6646}
{"name":"Mojo Jojo","id":211509880,"origin":"City of Las Vegas Animal Care Center","bite_quarantine":0,"returned":0,"latitude":35.5939,"longitude":-105.2239}
{"name":"Molly","id":211460888,"origin":"Humane Society of Lincoln County","bite_quarantine":1,"returned":0,"latitude":33.331749,"longitude":-105.6650}
{"name":"Mowgli","id":208819751,"origin":"Sandoval County Animal Services","bite_quarantine":1,"returned":0,"latitude":35.3515,"longitude":-106.4694}
{"name":"Muichiro","id":211840174,"origin":"Four Corners Animal League","bite_quarantine":0,"returned":1,"latitude":36.4072,"longitude":-105.5731}
{"name":"Mystery","id":211564788,"origin":"Artesia Animal Shelter (Paws & Claws Humane Society)","bite_quarantine":0,"returned":0,"latitude":32.8423,"longitude":-104.4033}
{"name":"Natasha","id":211696827,"origin":"Forever Homes Animal Rescue","bite_quarantine":0,"returned":0,"latitude":32.8985,"longitude":-105.9510}
{"name":"Neon","id":211460158,"origin":"Humane Society of Lincoln County","bite_quarantine":0,"returned":0,"latitude":33.331749,"longitude":-105.6650}
{"name":"Nezuko","id":211552398,"origin":"Stray","bite_quarantine":0,"returned":0}
{"name":"Nickel","id":211460841,"origin":"Humane Society of Lincoln County","bite_quarantine":0,"returned":0,"latitude":33.331749,"longitude":-105.6650}
{"name":"Nick Furry","id":211491129,"origin":"Petroglyph Animal Hospital","bite_quarantine":0,"returned":0,"latitude":35.1728,"longitude":-106.6737}
{"name":"Noelle","id":211510365,"origin":"adoption return","bite_quarantine":0,"returned":1,"latitude":0,"longitude":0}
{"name":"Nos","id":211706864,"origin":"Farmington Regional Animal Shelter","bite_quarantine":0,"returned":0,"latitude":36.7334,"longitude":-108.1681}
{"name":"Nova","id":208810842,"origin":"ABQ Animal Welfare Department","bite_quarantine":0,"returned":0,"latitude":35.1102,"longitude":-106.5823}
{"name":"Oca","id":211707070,"origin":"Farmington Regional Animal Shelter","bite_quarantine":0,"returned":1,"latitude":36.7334,"longitude":-108.1681}
{"name":"Oreo","id":208809271,"origin":"ABQ Animal Welfare Department","bite_quarantine":0,"returned":0,"latitude":35.1102,"longitude":-106.5823}
{"name":"Ozzie","id":211502889,"origin":"Espanola Humane","bite_quarantine":0,"returned":0,"latitude":36.0006,"longitude":-106.0373}
{"name":"Pancake","id":211649077,"origin":"Roswell Humane Society","bite_quarantine":0,"returned":0,"latitude":33.3930,"longitude":-104.5235}
{"name":"Peggy Carter","id":211696360,"origin":"Forever Homes Animal Rescue","bite_quarantine":0,"returned":0,"latitude":32.8985,"longitude":-105.9510}
{"name":"Phill","id":210468592,"origin":"Stray","bite_quarantine":0,"returned":0}
{"name":"Pickle","id":211834394,"origin":"The Animal Services Center","bite_quarantine":0,"returned":0,"latitude":32.3128,"longitude":-106.7799}
{"name":"Ping","id":208808287,"origin":"Owner Surrender","bite_quarantine":0,"returned":0}
{"name":"Plum","id":211030646,"origin":"Roswell Humane Society","bite_quarantine":0,"returned":2,"latitude":33.3930,"longitude":-104.5235}
{"name":"Pluto","id":211720186,"origin":"Humane Society of Lincoln County","bite_quarantine":0,"returned":0,"latitude":33.331749,"longitude":-105.6650}
{"name":"Portobello","id":211552885,"origin":"The Animal Services Center","bite_quarantine":0,"returned":0,"latitude":32.3128,"longitude":-106.7799}
{"name":"Primrose","id":211680482,"origin":"Corrales Animal Services","bite_quarantine":0,"returned":0,"latitude":35.2393,"longitude":-106.6054}
{"name":"Prince","id":211790369,"origin":"ACTion Programs for Animals","bite_quarantine":0,"returned":0,"latitude":32.315292,"longitude":-106.767102}
{"name":"Princess Carolyn","id":211565176,"origin":"Owner Surrender","bite_quarantine":0,"returned":0}
{"name":"Proteus","id":211720372,"origin":"Humane Society of Lincoln County","bite_quarantine":0,"returned":0,"latitude":33.331749,"longitude":-105.6650}
{"name":"Pudding","id":211639083,"origin":"Clayton","bite_quarantine":0,"returned":0,"latitude":36.4517,"longitude":-103.1841}
{"name":"Raider","id":211584476,"origin":"Bro & Tracy Animal Welfare","bite_quarantine":0,"returned":0,"latitude":35.2378,"longitude":-106.6067}
{"name":"Radish","id":211552993,"origin":"The Animal Services Center","bite_quarantine":0,"returned":0,"latitude":32.3128,"longitude":-106.7799}
{"name":"Ramen","id":210569574,"origin":"Otero County Animal Control","bite_quarantine":0,"returned":1,"latitude":32.8995,"longitude":-105.9603}
{"name":"Red","id":210719230,"origin":"Corrales Animal Services","bite_quarantine":0,"returned":0,"latitude":35.2393,"longitude":-106.6054}
{"name":"Remington","id":210719230,"origin":"Corrales Animal Services","bite_quarantine":0,"returned":0,"latitude":35.2393,"longitude":-106.6054}
{"name":"Rex","id":211818562,"origin":"Truth or Consequences Animal Shelter","bite_quarantine":0,"returned":0,"latitude":33.1347,"longitude":-107.2425}
{"name":"Rio","id":211462064,"origin":"Humane Society of Lincoln County","bite_quarantine":0,"returned":0,"latitude":33.331749,"longitude":-105.6650}
{"name":"Ronald","id":210698425,"origin":"ABQ Animal Welfare Department","bite_quarantine":0,"returned":0,"latitude":35.1102,"longitude":-106.5823}
{"name":"Rumi","id":211564701,"origin":"Artesia Animal Shelter (Paws & Claws Humane Society)","bite_quarantine":0,"returned":0,"latitude":32.8423,"longitude":-104.4033}
{"name":"Pearl","id":211471778,"origin":"Roswell Humane Society","bite_quarantine":0,"returned":0,"latitude":33.3930,"longitude":-104.5235}
{"name":"Phelps","id":210698425,"origin":"ABQ Animal Welfare Department","bite_quarantine":1,"returned":0,"latitude":35.1102,"longitude":-106.5823}
{"name":"Photon","id":211696559,"origin":"Forever Homes Animal Rescue","bite_quarantine":0,"returned":0,"latitude":32.8985,"longitude":-105.9510}
{"name":"Raphtalia","id":211808037,"origin":"Espanola Humane","bite_quarantine":0,"returned":0,"latitude":36.0006,"longitude":-106.0373}
{"name":"Ravioli","id":211823828,"origin":"Santa Rosa Animal Control","bite_quarantine":0,"returned":0,"latitude":34.9387,"longitude":-104.6825}
{"name":"Rocco","id":208819565,"origin":"ABQ Animal Welfare Department","bite_quarantine":0,"returned":0,"latitude":35.1102,"longitude":-106.5823}
{"name":"Rollo","id":211910420,"origin":"Owner Surrender","bite_quarantine":0,"returned":0}
{"name":"Romance","id":211564800,"origin":"Artesia Animal Shelter (Paws & Claws Humane Society)","bite_quarantine":0,"returned":0,"latitude":32.8423,"longitude":-104.4033}
{"name":"Rosie","id":211606830,"origin":"Otero County Animal Control","bite_quarantine":0,"returned":0,"latitude":32.8995,"longitude":-105.9603}
{"name":"Santana","id":211875394,"origin":"Stray","bite_quarantine":0,"returned":0}
{"name":"Sarah Lynn","id":211565205,"origin":"Owner Surrender","bite_quarantine":0,"returned":0}
{"name":"Scooby","id":210651765,"origin":"Santa Rosa Animal Control","bite_quarantine":0,"returned":0,"latitude":34.9387,"longitude":-104.6825}
{"name":"Scout","id":211834064,"origin":"The Animal Services Center","bite_quarantine":0,"returned":0,"latitude":32.3128,"longitude":-106.7799}
{"name":"Scratch","id":211807878,"origin":"Espanola Humane","bite_quarantine":0,"returned":0,"latitude":36.0006,"longitude":-106.0373}
{"name":"Shadowheart","id":211811981,"origin":"Bernalillo County Animal Care","bite_quarantine":0,"returned":0,"latitude":35.0561,"longitude":-106.6646}
{"name":"Shiitake","id":211552865,"origin":"The Animal Services Center","bite_quarantine":0,"returned":1,"latitude":32.3128,"longitude":-106.7799}
{"name":"Sierra","id":208819449,"origin":"Moriarty Animal Control","bite_quarantine":0,"returned":1,"latitude":34.9996,"longitude":-106.0183}
{"name":"Sinbad","id":211720318,"origin":"Humane Society of Lincoln County","bite_quarantine":0,"returned":0,"latitude":33.331749,"longitude":-105.6650}
{"name":"Skipper","id":211834149,"origin":"The Animal Services Center","bite_quarantine":0,"returned":0,"latitude":32.3128,"longitude":-106.7799}
{"name":"Smooch","id":211530732,"origin":"ABQ Animal Welfare Department","bite_quarantine":0,"returned":0,"latitude":35.1102,"longitude":-106.5823}
{"name":"Snoopy","id":208812411,"origin":"Owner Surrender","bite_quarantine":0,"returned":5}
{"name":"Sponge Bob","id":211471667,"origin":"Roswell Humane Society","bite_quarantine":0,"returned":0,"latitude":33.3930,"longitude":-104.5235}
{"name":"Sproket","id":211552592,"origin":"The Animal Services Center","bite_quarantine":0,"returned":0,"latitude":32.3128,"longitude":-106.7799}
{"name":"Star","id":211720123,"origin":"Humane Society of Lincoln County","bite_quarantine":0,"returned":0,"latitude":33.331749,"longitude":-105.6650}
{"name":"Starlight","id":211015608,"origin":"City of Las Vegas Animal Care Center","bite_quarantine":0,"returned":0,"latitude":35.5939,"longitude":-105.2239}
{"name":"Storm","id":211016449,"origin":"City of Las Vegas Animal Care Center","bite_quarantine":0,"returned":0,"latitude":35.5939,"longitude":-105.2239}
{"name":"Strawberry","id":211564541,"origin":"Artesia Animal Shelter (Paws & Claws Humane Society)","bite_quarantine":0,"returned":0,"latitude":32.8423,"longitude":-104.4033}
{"name":"Subwoofer","id":211502395,"origin":"Espanola Humane","bite_quarantine":0,"returned":0,"latitude":36.0006,"longitude":-106.0373}
{"name":"Sweet Pea","id":211819096,"origin":"Truth or Consequences Animal Shelter","bite_quarantine":0,"returned":0,"latitude":33.1347,"longitude":-107.2425}
{"name":"Sylveon","id":211648398,"origin":"Roswell Humane Society","bite_quarantine":0,"returned":1,"latitude":33.3930,"longitude":-104.5235}
{"name":"Taco","id":208818887,"origin":"Paws & Claws Rescue of Quay County","bite_quarantine":0,"returned":0,"latitude":35.1911,"longitude":-103.6150}
{"name":"Tam","id":211808589,"origin":"Espanola Humane","bite_quarantine":0,"returned":0,"latitude":36.0006,"longitude":-106.0373}
{"name":"Tangerine","id":210758790,"origin":"Mountainair Animal Control","bite_quarantine":1,"returned":0,"latitude":34.5197,"longitude":-106.2433}
{"name":"Tank","id":211584301,"origin":"Bro & Tracy Animal Welfare","bite_quarantine":0,"returned":0,"latitude":35.2378,"longitude":-106.6067}
{"name":"Tauriel","id":211903229,"origin":"Humane Society of Lincoln County","bite_quarantine":0,"returned":0,"latitude":33.3436,"longitude":-105.6650}
{"name":"Theo","id":211570377,"origin":"Sandoval County Animal Services","bite_quarantine":0,"returned":0,"latitude":35.3515,"longitude":-106.4694}
{"name":"Thunder","id":211208121,"origin":"Bernalillo County Animal Care","bite_quarantine":0,"returned":2,"latitude":35.0561,"longitude":-106.6646}
{"name":"Tim","id":211808307,"origin":"Espanola Humane","bite_quarantine":0,"returned":0,"latitude":36.0006,"longitude":-106.0373}
{"name":"Tina","id":211789992,"origin":"ACTion Programs for Animals","bite_quarantine":0,"returned":0,"latitude":32.315292,"longitude":-106.767102}
{"name":"Tish","id":211537630,"origin":"DAGSHIP Rescue","bite_quarantine":0,"returned":0,"latitude":32.2655,"longitude":-107.7582}
{"name":"Tom Hardy","id":211460756,"origin":"Humane Society of Lincoln County","bite_quarantine":0,"returned":0,"latitude":33.331749,"longitude":-105.6650}
{"name":"Tortellini","id":211823911,"origin":"Santa Rosa Animal Control","bite_quarantine":0,"returned":0,"latitude":34.9387,"longitude":-104.6825}
{"name":"Trooper","id":211569878,"origin":"Sandoval County Animal Services","bite_quarantine":0,"returned":0,"latitude":35.3515,"longitude":-106.4694}
{"name":"Truffle","id":211552826,"origin":"The Animal Services Center","bite_quarantine":0,"returned":0,"latitude":32.3128,"longitude":-106.7799}
{"name":"Tuna","id":211535433,"origin":"Stray","bite_quarantine":0,"returned":0}
{"name":"Umbreon","id":211648340,"origin":"Roswell Humane Society","bite_quarantine":0,"returned":1,"latitude":33.3930,"longitude":-104.5235}
{"name":"Vaporeon","id":211648518,"origin":"Roswell Humane Society","bite_quarantine":0,"returned":0,"latitude":33.3930,"longitude":-104.5235}
{"name":"Vixie","id":211839851,"origin":"Torrance County Animal Shelter","bite_quarantine":0,"returned":1,"latitude":34.8712,"longitude":-106.0515}
{"name":"Waffle","id":211648753,"origin":"Roswell Humane Society","bite_quarantine":0,"returned":0,"latitude":33.3930,"longitude":-104.5235}
{"name":"Wanda","id":211696060,"origin":"Forever Homes Animal Rescue","bite_quarantine":0,"returned":0,"latitude":32.8985,"longitude":-105.9510}
{"name":"Warbler","id":210433767,"origin":"Paws & Claws Rescue of Quay County","bite_quarantine":0,"returned":0,"latitude":35.1911,"longitude":-103.6150}
{"name":"Watermelon","id":211564584,"origin":"Artesia Animal Shelter (Paws & Claws Humane Society)","bite_quarantine":0,"returned":0,"latitude":32.8423,"longitude":-104.4033}
{"name":"Wilbur","id":210495598,"origin":"ABQ Animal Welfare Department","bite_quarantine":0,"returned":0,"latitude":35.1102,"longitude":-106.5823}
{"name":"Wiley","id":211606525,"origin":"Otero County Animal Control","bite_quarantine":0,"returned":0,"latitude":32.8995,"longitude":-105.9603}
{"name":"Wilma","id":208808221,"origin":"Aztec Animal Shelter","bite_quarantine":0,"returned":1,"latitude":36.8305,"longitude":-108.0095}
{"name":"Winnie","id":211725792,"origin":"Owner Surrender","bite_quarantine":0,"returned":0}
{"name":"Wishbone","id":211795874,"origin":"Santa Clara Animal Control","bite_quarantine":0,"returned":0,"latitude":32.776773,"longitude":-108.153132}
{"name":"Yelena","id":211696736,"origin":"Forever Homes Animal Rescue","bite_quarantine":0,"returned":0,"latitude":32.8985,"longitude":-105.9510}
{"name":"Yuno","id":211446506,"origin":"Stray","bite_quarantine":0, "returned":0}
{"name":"Zane","id":211410022,"origin":"Truth or Consequences Animal Shelter","bite_quarantine":1,"returned":0,"latitude":33.1347,"longitude":-107.2425}
{"name":"Zebra","id":208812347,"origin":"ABQ Animal Welfare Department","bite_quarantine":1,"returned":0,"latitude":35.1102,"longitude":-106.5823}
{"name":"Ziggy","id":211834297,"origin":"The Animal Services Center","bite_quarantine":0,"returned":0,"latitude":32.3128,"longitude":-106.7799}
{"name":"Zoey","id":211564733,"origin":"Artesia Animal Shelter (Paws & Claws Humane Society)","bite_quarantine":0,"returned":0,"latitude":32.8423,"longitude":-104.4033}
{"name":"Zuni","id":211159999,"origin":"Stray","bite_quarantine":0, "returned":0, "location":"Foster Home"}
